{
"type": "FeatureCollection",
"name": "occupied since\/ مقطوع منذ \/ 18\/10",
"crs": { "type": "name", "properties": { "name": "urn:ogc:def:crs:OGC:1.3:CRS84" } },
"features": [
{ "type": "Feature", "properties": { "Name": "Al Sayad Roundabout\n", "description": "جسر بعبدا - اتجاه الصياد", "tessellate": -1, "extrude": 0, "visibility": -1 }, "geometry": { "type": "Point", "coordinates": [ 35.5395616, 33.8622785, 0.0 ] } },
{ "type": "Feature", "properties": { "Name": "Tyre Rest House\n", "description": "استراحة صور", "tessellate": -1, "extrude": 0, "visibility": -1 }, "geometry": { "type": "Point", "coordinates": [ 35.2080081, 33.2637703, 0.0 ] } },
{ "type": "Feature", "properties": { "Name": "Jisr El Wati\n", "description": "جسر الواطي", "tessellate": -1, "extrude": 0, "visibility": -1 }, "geometry": { "type": "Point", "coordinates": [ 35.5304732, 33.8846212, 0.0 ] } },
{ "type": "Feature", "properties": { "Name": "Tripoli - Madfoun Highway\n", "description": "اتوستراد طرابلس - المدفون", "tessellate": -1, "extrude": 0, "visibility": -1 }, "geometry": { "type": "Point", "coordinates": [ 35.6517471, 34.2100786, 0.0 ] } },
{ "type": "Feature", "properties": { "Name": "OPEN_Roumieh Highway", "description": "اتوستراد رومية‎", "tessellate": -1, "extrude": 0, "visibility": -1 }, "geometry": { "type": "Point", "coordinates": [ 35.5975066, 33.8939085, 0.0 ] } },
{ "type": "Feature", "properties": { "Name": "Jidta", "description": "جديتا", "tessellate": -1, "extrude": 0, "visibility": -1 }, "geometry": { "type": "Point", "coordinates": [ 35.840914, 33.817715, 0.0 ] } },
{ "type": "Feature", "properties": { "Name": "Mar Elias - Karakol Druze", "description": "مار اليس -كركول الدروز", "tessellate": -1, "extrude": 0, "visibility": -1 }, "geometry": { "type": "Point", "coordinates": [ 35.4905943, 33.8903645, 0.0 ] } },
{ "type": "Feature", "properties": { "Name": "Ministry of Interior", "description": "وزارة الداخلية بيروت", "tessellate": -1, "extrude": 0, "visibility": -1 }, "geometry": { "type": "Point", "coordinates": [ 35.4894743, 33.8953074, 0.0 ] } },
{ "type": "Feature", "properties": { "Name": "Mar Mikhael - Jesr el Hadid", "description": "مار مخايل - جسر الحديد", "tessellate": -1, "extrude": 0, "visibility": -1 }, "geometry": { "type": "Point", "coordinates": [ 35.5332498, 33.8962527, 0.0 ] } },
{ "type": "Feature", "properties": { "Name": "Bir el Sanesel - Kherbet Selem", "description": "بئر السناسل - خربة سلم", "tessellate": -1, "extrude": 0, "visibility": -1 }, "geometry": { "type": "Point", "coordinates": [ 35.4110887, 33.2273411, 0.0 ] } },
{ "type": "Feature", "properties": { "Name": "Saifi", "description": "الصيفي بيروت", "tessellate": -1, "extrude": 0, "visibility": -1 }, "geometry": { "type": "Point", "coordinates": [ 35.5091853, 33.8949568, 0.0 ] } },
{ "type": "Feature", "properties": { "Name": "Kfarhazir Exit", "description": "مدخل كفرحزير‎", "tessellate": -1, "extrude": 0, "visibility": -1 }, "geometry": { "type": "Point", "coordinates": [ 35.7333512, 34.3215736, 0.0 ] } },
{ "type": "Feature", "properties": { "Name": "Amchit Highway", "description": "اتوستراد عمشيت بالاتجاهين", "tessellate": -1, "extrude": 0, "visibility": -1 }, "geometry": { "type": "Point", "coordinates": [ 35.6336267, 34.1486314, 0.0 ] } },
{ "type": "Feature", "properties": { "Name": "Casino - Highway", "description": "اتوستراد - الكازينو", "tessellate": -1, "extrude": 0, "visibility": -1 }, "geometry": { "type": "Point", "coordinates": [ 35.6423344, 34.0162778, 0.0 ] } },
{ "type": "Feature", "properties": { "Name": "Verdun", "description": "بيروت فردان", "tessellate": -1, "extrude": 0, "visibility": -1 }, "geometry": { "type": "Point", "coordinates": [ 35.4839799, 33.8904067, 0.0 ] } },
{ "type": "Feature", "properties": { "Name": "Western Bekaa Rd Kefraya", "description": "طريق البقاع الغربي - كفريا", "tessellate": -1, "extrude": 0, "visibility": -1 }, "geometry": { "type": "Point", "coordinates": [ 35.7377871, 33.6685546, 0.0 ] } },
{ "type": "Feature", "properties": { "Name": "Sarafand - Highway\n", "description": "اتوستراد الصرفند", "tessellate": -1, "extrude": 0, "visibility": -1 }, "geometry": { "type": "Point", "coordinates": [ 35.3150906, 33.451313, 0.0 ] } },
{ "type": "Feature", "properties": { "Name": "Casino - Coastal Rd", "description": "الطريق البحري - الكازينو", "tessellate": -1, "extrude": 0, "visibility": -1 }, "geometry": { "type": "Point", "coordinates": [ 35.6416477, 34.0136811, 0.0 ] } },
{ "type": "Feature", "properties": { "Name": "Minyara", "description": "منيارة", "tessellate": -1, "extrude": 0, "visibility": -1 }, "geometry": { "type": "Point", "coordinates": [ 36.0591427, 34.5368263, 0.0 ] } },
{ "type": "Feature", "properties": { "Name": "Baakline Roundabout\n", "description": "دوار بعقلين بيت الدين <br>‎", "tessellate": -1, "extrude": 0, "visibility": -1 }, "geometry": { "type": "Point", "coordinates": [ 35.5572758, 33.6798451, 0.0 ] } },
{ "type": "Feature", "properties": { "Name": "OPEN_Cola", "description": "كولا‎", "tessellate": -1, "extrude": 0, "visibility": -1 }, "geometry": { "type": "Point", "coordinates": [ 35.4952273, 33.8764128, 0.0 ] } },
{ "type": "Feature", "properties": { "Name": "Corniche Al Mina Tripoli\n", "description": "كورنيش المينا - طرابلس", "tessellate": -1, "extrude": 0, "visibility": -1 }, "geometry": { "type": "Point", "coordinates": [ 35.8077933, 34.4535289, 0.0 ] } },
{ "type": "Feature", "properties": { "Name": "Ghaziyeh Highway Exit\n", "description": "مفرق الغازية", "tessellate": -1, "extrude": 0, "visibility": -1 }, "geometry": { "type": "Point", "coordinates": [ 35.3627125, 33.5189696, 0.0 ] } },
{ "type": "Feature", "properties": { "Name": "Aley Roundabout\n", "description": "مستديرة عاليه<br>‎‎", "tessellate": -1, "extrude": 0, "visibility": -1 }, "geometry": { "type": "Point", "coordinates": [ 35.6090181, 33.814173, 0.0 ] } },
{ "type": "Feature", "properties": { "Name": "Corniche el Mazraa\n", "description": "كورنيش المزرعة", "tessellate": -1, "extrude": 0, "visibility": -1 }, "geometry": { "type": "Point", "coordinates": [ 35.4944573, 33.8795907, 0.0 ] } },
{ "type": "Feature", "properties": { "Name": "Mirna Chalouhi Highway - Centre Habib\n", "description": "طريق ميرنا شالوحي<br>‎‎‎ - سانتر حبيب", "tessellate": -1, "extrude": 0, "visibility": -1 }, "geometry": { "type": "Point", "coordinates": [ 35.5458707, 33.8845634, 0.0 ] } },
{ "type": "Feature", "properties": { "Name": "Barja Highway Exit \n", "description": "مفرق برجا - الاتوستراد", "tessellate": -1, "extrude": 0, "visibility": -1 }, "geometry": { "type": "Point", "coordinates": [ 35.4243948, 33.6573297, 0.0 ] } },
{ "type": "Feature", "properties": { "Name": "Tyr access Rd\n", "description": "الطريق المؤدية إلى صور‎", "tessellate": -1, "extrude": 0, "visibility": -1 }, "geometry": { "type": "Point", "coordinates": [ 35.2206384, 33.2282205, 0.0 ] } },
{ "type": "Feature", "properties": { "Name": "Bint Jbeil access Rd\n", "description": "الطريق المؤدية إلى بنت جبيل", "tessellate": -1, "extrude": 0, "visibility": -1 }, "geometry": { "type": "Point", "coordinates": [ 35.2329966, 33.2474164, 0.0 ] } },
{ "type": "Feature", "properties": { "Name": "Marjaayoun\/Nabatiye access road\n", "description": "الطريق المؤدية إلى مرجعيون والنبطية<br>‎", "tessellate": -1, "extrude": 0, "visibility": -1 }, "geometry": { "type": "Point", "coordinates": [ 35.2815528, 33.3689553, 0.0 ] } },
{ "type": "Feature", "properties": { "Name": "Okaibeh - Coastal Rd\n", "description": "الطريق البحري - العقيبة<br>‎", "tessellate": -1, "extrude": 0, "visibility": -1 }, "geometry": { "type": "Point", "coordinates": [ 35.6438439, 34.0623853, 0.0 ] } },
{ "type": "Feature", "properties": { "Name": "Akkar - Khraybet el Jundi\n", "description": "عكار - مفرق خريبة الجندي", "tessellate": -1, "extrude": 0, "visibility": -1 }, "geometry": { "type": "Point", "coordinates": [ 36.0830611, 34.5625965, 0.0 ] } },
{ "type": "Feature", "properties": { "Name": "Anfeh-Batroun Coastal Rd\n", "description": "طريق انفه - البترون البحرية", "tessellate": -1, "extrude": 0, "visibility": -1 }, "geometry": { "type": "Point", "coordinates": [ 35.7722806, 34.3819832, 0.0 ] } },
{ "type": "Feature", "properties": { "Name": "Laboueh - Beqaa\n", "description": "طريق الدولية بزلية - لبوة - بقاع<br>‎‎", "tessellate": -1, "extrude": 0, "visibility": -1 }, "geometry": { "type": "Point", "coordinates": [ 36.3528564, 34.1961638, 0.0 ] } },
{ "type": "Feature", "properties": { "Name": "Biret Akkar - Qoubayat Rd\n", "description": "طريق البيرة - القبيات - عكار", "tessellate": -1, "extrude": 0, "visibility": -1 }, "geometry": { "type": "Point", "coordinates": [ 36.2615062, 34.5826815, 0.0 ] } },
{ "type": "Feature", "properties": { "Name": "Ghazze - Joub Jannine Highway\n", "description": "اتوستراد غزة - جب جنين", "tessellate": -1, "extrude": 0, "visibility": -1 }, "geometry": { "type": "Point", "coordinates": [ 35.8108551, 33.6481922, 0.0 ] } },
{ "type": "Feature", "properties": { "Name": "Beit Meri Roundabout\n", "description": "بيت مري <br>مستديرة", "tessellate": -1, "extrude": 0, "visibility": -1 }, "geometry": { "type": "Point", "coordinates": [ 35.6076992, 33.8700803, 0.0 ] } },
{ "type": "Feature", "properties": { "Name": "Mouthalath Qalawiye\n", "description": "مثلث القلوية", "tessellate": -1, "extrude": 0, "visibility": -1 }, "geometry": { "type": "Point", "coordinates": [ 35.422632, 33.2636994, 0.0 ] } },
{ "type": "Feature", "properties": { "Name": "Ghandouriye", "description": "الغندورية", "tessellate": -1, "extrude": 0, "visibility": -1 }, "geometry": { "type": "Point", "coordinates": [ 35.4325325, 33.2732332, 0.0 ] } },
{ "type": "Feature", "properties": { "Name": "Froun", "description": "الفرون", "tessellate": -1, "extrude": 0, "visibility": -1 }, "geometry": { "type": "Point", "coordinates": [ 35.4285182, 33.2964096, 0.0 ] } },
{ "type": "Feature", "properties": { "Name": "Deir Kifa\n", "description": "دير كيفا", "tessellate": -1, "extrude": 0, "visibility": -1 }, "geometry": { "type": "Point", "coordinates": [ 35.3987586, 33.2586682, 0.0 ] } },
{ "type": "Feature", "properties": { "Name": "Srifa", "description": "صريفا", "tessellate": -1, "extrude": 0, "visibility": -1 }, "geometry": { "type": "Point", "coordinates": [ 35.3968848, 33.2811528, 0.0 ] } },
{ "type": "Feature", "properties": { "Name": "Kfar Roummane Roundabout\n", "description": "مستديرة كفر رمان", "tessellate": -1, "extrude": 0, "visibility": -1 }, "geometry": { "type": "Point", "coordinates": [ 35.4907648, 33.3895667, 0.0 ] } },
{ "type": "Feature", "properties": { "Name": "Mafra' el Marwaniye\n", "description": "مفرق المروانية<br>‎", "tessellate": -1, "extrude": 0, "visibility": -1 }, "geometry": { "type": "Point", "coordinates": [ 35.3931665, 33.4545556, 0.0 ] } },
{ "type": "Feature", "properties": { "Name": "Saida - Corniche\n", "description": "الكورنيش صيدا<br>‎‎", "tessellate": -1, "extrude": 0, "visibility": -1 }, "geometry": { "type": "Point", "coordinates": [ 35.3737728, 33.5664147, 0.0 ] } },
{ "type": "Feature", "properties": { "Name": "Saksakiyeh Highway\n", "description": "اتوستراد السكسكية", "tessellate": -1, "extrude": 0, "visibility": -1 }, "geometry": { "type": "Point", "coordinates": [ 35.306788, 33.4284986, 0.0 ] } },
{ "type": "Feature", "properties": { "Name": "OPEN_Qasmiyeh Bridge\n", "description": "جسر القاسمية، قبل مقام النبي ساري<br>‎ -مفتوح", "tessellate": -1, "extrude": 0, "visibility": -1 }, "geometry": { "type": "Point", "coordinates": [ 35.2489637, 33.3245173, 0.0 ] } },
{ "type": "Feature", "properties": { "Name": "Msayleh Highway\n", "description": "اتوستراد المصيلح", "tessellate": -1, "extrude": 0, "visibility": -1 }, "geometry": { "type": "Point", "coordinates": [ 35.3486505, 33.480666, 0.0 ] } },
{ "type": "Feature", "properties": { "Name": "Wadi Al Zineh Road\n", "description": "طريق وادي الزيني", "tessellate": -1, "extrude": 0, "visibility": -1 }, "geometry": { "type": "Point", "coordinates": [ 35.4054378, 33.6247479, 0.0 ] } },
{ "type": "Feature", "properties": { "Name": "Spears", "description": "شارع سبيرز<br>‎", "tessellate": -1, "extrude": 0, "visibility": -1 }, "geometry": { "type": "Point", "coordinates": [ 35.4956679, 33.8947864, 0.0 ] } },
{ "type": "Feature", "properties": { "Name": "Kousba Main Road\n", "description": "الطريق العام في كوسبا", "tessellate": -1, "extrude": 0, "visibility": -1 }, "geometry": { "type": "Point", "coordinates": [ 35.8479508, 34.3019619, 0.0 ] } },
{ "type": "Feature", "properties": { "Name": "Furn el Chebbak  - Abraj\n", "description": "فرن الشباك - أبراج", "tessellate": -1, "extrude": 0, "visibility": -1 }, "geometry": { "type": "Point", "coordinates": [ 35.5230417, 33.8688633, 0.0 ] } },
{ "type": "Feature", "properties": { "Name": "Furn El Chebbak - Alfa\n", "description": "فرن الشباك - ألفا", "tessellate": -1, "extrude": 0, "visibility": -1 }, "geometry": { "type": "Point", "coordinates": [ 35.5289211, 33.8662798, 0.0 ] } },
{ "type": "Feature", "properties": { "Name": "Beirut - Hippodrome\n", "description": "بيروت - سبق الخيل", "tessellate": -1, "extrude": 0, "visibility": -1 }, "geometry": { "type": "Point", "coordinates": [ 35.5108385, 33.878596, 0.0 ] } },
{ "type": "Feature", "properties": { "Name": "Beirut - Ras El Nabeh\n", "description": "بيروت - راس النبع", "tessellate": -1, "extrude": 0, "visibility": -1 }, "geometry": { "type": "Point", "coordinates": [ 35.506982, 33.881455, 0.0 ] } },
{ "type": "Feature", "properties": { "Name": "Tayouneh - Downtown - every 200m\n", "description": "قطع طريق كل ٢٠٠ متر من الطيونة إلى وسط المدينة", "tessellate": -1, "extrude": 0, "visibility": -1 }, "geometry": { "type": "Point", "coordinates": [ 35.5110243, 33.8732889, 0.0 ] } },
{ "type": "Feature", "properties": { "Name": "Tayouneh - Downtown - every 200m", "description": "قطع طريق كل ٢٠٠ متر من الطيونة إلى وسط المدينة‎", "tessellate": -1, "extrude": 0, "visibility": -1 }, "geometry": { "type": "Point", "coordinates": [ 35.5072368, 33.8771741, 0.0 ] } },
{ "type": "Feature", "properties": { "Name": "Tayouneh - Downtown - every 200m", "description": "قطع طريق كل ٢٠٠ متر من الطيونة إلى وسط المدينة<br>‎", "tessellate": -1, "extrude": 0, "visibility": -1 }, "geometry": { "type": "Point", "coordinates": [ 35.513717, 33.8709455, 0.0 ] } },
{ "type": "Feature", "properties": { "Name": "Mansourieh", "description": "منصورية", "tessellate": -1, "extrude": 0, "visibility": -1 }, "geometry": { "type": "Point", "coordinates": [ 35.5685625, 33.8583774, 0.0 ] } },
{ "type": "Feature", "properties": { "Name": "Zgharta - Koura Highway\n", "description": "اتوستراد زغرتا - الكورة<br>‎كنيسة مار جرجس", "tessellate": -1, "extrude": 0, "visibility": -1 }, "geometry": { "type": "Point", "coordinates": [ 35.8982508, 34.3672025, 0.0 ] } },
{ "type": "Feature", "properties": { "Name": "OPEN_ Hasbaya-Bekaa Road \/ Wede Maimes\n", "description": "طريق حاصبيا - البقاع، وادي ميمس<br>‎‎ - مفتوح", "tessellate": -1, "extrude": 0, "visibility": -1 }, "geometry": { "type": "Point", "coordinates": [ 35.6984701, 33.4358369, 0.0 ] } },
{ "type": "Feature", "properties": { "Name": "Saida - Sidon - Riad Al Solh Road \n", "description": "صيدا - شارع رياض الصلح، محلة بوابة الفوقا", "tessellate": -1, "extrude": 0, "visibility": -1 }, "geometry": { "type": "Point", "coordinates": [ 35.3810468, 33.5754418, 0.0 ] } },
{ "type": "Feature", "properties": { "Name": "Sarba Highway - near Soldini\n", "description": "اتوستراد صربا، قرب سولديني", "tessellate": -1, "extrude": 0, "visibility": -1 }, "geometry": { "type": "Point", "coordinates": [ 35.6266197, 33.9779866, 0.0 ] } },
{ "type": "Feature", "properties": { "Name": "Zouk Mikael - Coastal Rd\n", "description": "طريق البحري - زوق مكايل<br>‎", "tessellate": -1, "extrude": 0, "visibility": -1 }, "geometry": { "type": "Point", "coordinates": [ 35.6060031, 33.968603, 0.0 ] } },
{ "type": "Feature", "properties": { "Name": "ON\/OFF_Airport Road\n", "description": "طريق المطار<br>‎ قطع في ٢٠ نقطة‎‎ فتح مؤقط ومتقطع", "tessellate": -1, "extrude": 0, "visibility": -1 }, "geometry": { "type": "Point", "coordinates": [ 35.4936871, 33.8461461, 0.0 ] } },
{ "type": "Feature", "properties": { "Name": "ON\/OFF_Airport Road - 20 blocks\n", "description": "طريق المطار<br>‎ قطع في ٢٠ نقطة‎‎ فتح مؤقط ومتقطع", "tessellate": -1, "extrude": 0, "visibility": -1 }, "geometry": { "type": "Point", "coordinates": [ 35.493524, 33.852656, 0.0 ] } },
{ "type": "Feature", "properties": { "Name": "ON\/OFF_Airport Road - 20 blocks\n", "description": "طريق المطار<br>‎ قطع في ٢٠ نقطة‎‎ فتح مؤقط ومتقطع", "tessellate": -1, "extrude": 0, "visibility": -1 }, "geometry": { "type": "Point", "coordinates": [ 35.4936013, 33.8587271, 0.0 ] } },
{ "type": "Feature", "properties": { "Name": "ON\/OFF_Airport Road - 20 blocks\n", "description": "طريق المطار<br>‎ قطع في ٢٠ نقطة‎‎ فتح مؤقط ومتقطع", "tessellate": -1, "extrude": 0, "visibility": -1 }, "geometry": { "type": "Point", "coordinates": [ 35.4939875, 33.8407996, 0.0 ] } },
{ "type": "Feature", "properties": { "Name": "Qya3a and Qinaya Access Road\n", "description": "طريق القياعة والقناية", "tessellate": -1, "extrude": 0, "visibility": -1 }, "geometry": { "type": "Point", "coordinates": [ 35.3859886, 33.5618674, 0.0 ] } },
{ "type": "Feature", "properties": { "Name": "Qya3a and Qinaya Access Road", "description": "طريق القياعة والقناية", "tessellate": -1, "extrude": 0, "visibility": -1 }, "geometry": { "type": "Point", "coordinates": [ 35.3866923, 33.5662403, 0.0 ] } },
{ "type": "Feature", "properties": { "Name": "Beqaa - Khiara\n", "description": "خيارة - البقاع الغربي", "tessellate": -1, "extrude": 0, "visibility": -1 }, "geometry": { "type": "Point", "coordinates": [ 35.8407702, 33.6940122, 0.0 ] } },
{ "type": "Feature", "properties": { "Name": "Halat Highway", "description": "اتوستراد حالات", "tessellate": -1, "extrude": 0, "visibility": -1 }, "geometry": { "type": "Point", "coordinates": [ 35.6512078, 34.0848672, 0.0 ] } },
{ "type": "Feature", "properties": { "Name": "Amioun Highway", "description": "اتوستراد اميون", "tessellate": -1, "extrude": 0, "visibility": -1 }, "geometry": { "type": "Point", "coordinates": [ 35.8081819, 34.2994339, 0.0 ] } },
{ "type": "Feature", "properties": { "Name": "Bcharre- Arz Highway", "description": "اتوستراد بشري - الأرز", "tessellate": -1, "extrude": 0, "visibility": -1 }, "geometry": { "type": "Point", "coordinates": [ 36.0112719, 34.2567736, 0.0 ] } },
{ "type": "Feature", "properties": { "Name": "Ras Masqa - Dahr El Ain Roundabout", "description": "مستديرة راسمسقا - ضهر العين ‎", "tessellate": -1, "extrude": 0, "visibility": -1 }, "geometry": { "type": "Point", "coordinates": [ 35.8414516, 34.3965508, 0.0 ] } },
{ "type": "Feature", "properties": { "Name": "Wadi Khaled Road", "description": "طريق وادي خالد‎", "tessellate": -1, "extrude": 0, "visibility": -1 }, "geometry": { "type": "Point", "coordinates": [ 36.3784685, 34.5775561, 0.0 ] } },
{ "type": "Feature", "properties": { "Name": "Jezzine Municipality", "description": "جزين - القصر البلدي", "tessellate": -1, "extrude": 0, "visibility": -1 }, "geometry": { "type": "Point", "coordinates": [ 35.5830566, 33.5451192, 0.0 ] } },
{ "type": "Feature", "properties": { "Name": "Berqayel - Dawra", "description": "برقايل - كوع الدورة", "tessellate": -1, "extrude": 0, "visibility": -1 }, "geometry": { "type": "Point", "coordinates": [ 36.0351396, 34.4770472, 0.0 ] } },
{ "type": "Feature", "properties": { "Name": "Abou Samra - Tripoli", "description": "ابو سمرا طرابلس", "tessellate": -1, "extrude": 0, "visibility": -1 }, "geometry": { "type": "Point", "coordinates": [ 35.8427621, 34.4289969, 0.0 ] } },
{ "type": "Feature", "properties": { "Name": "Dbayeh - Le Royal - Highway", "description": "ضبية - لورويال- اتوستراد", "tessellate": -1, "extrude": 0, "visibility": -1 }, "geometry": { "type": "Point", "coordinates": [ 35.5927798, 33.9486843, 0.0 ] } },
{ "type": "Feature", "properties": { "Name": "Mtayleb road", "description": "طريق المطيلب", "tessellate": -1, "extrude": 0, "visibility": -1 }, "geometry": { "type": "Point", "coordinates": [ 35.6071728, 33.9225084, 0.0 ] } },
{ "type": "Feature", "properties": { "Name": "Dahr El Baidar - Makseh", "description": "ضهر البيدر -محلة المكسة", "tessellate": -1, "extrude": 0, "visibility": -1 }, "geometry": { "type": "Point", "coordinates": [ 35.7681075, 33.813326, 0.0 ] } },
{ "type": "Feature", "properties": { "Name": "Faour", "description": "الفاعور", "tessellate": -1, "extrude": 0, "visibility": -1 }, "geometry": { "type": "Point", "coordinates": [ 35.5968997, 33.9132569, 0.0 ] } },
{ "type": "Feature", "properties": { "Name": "Al Assi Bridge\n", "description": "جسر العاصي", "tessellate": -1, "extrude": 0, "visibility": -1 }, "geometry": { "type": "Point", "coordinates": [ 36.414697, 34.3915105, 0.0 ] } }
]
}
